,City,Lat,Lng,Max Temp,Humidity,Cloudiness,Wind Speed,Country,Date
0,Batagay,67.63,134.63,284.19,65,3,1.65,RU,1596913712
1,Hithadhoo,-0.6,73.08,301.36,81,21,5.28,MV,1596913740
2,Horizontina,-27.63,-54.31,297.0,62,0,2.62,BR,1596913740
3,Amga,60.9,131.96,284.93,64,18,0.2,RU,1596913740
4,Busselton,-33.65,115.33,289.26,68,100,3.58,AU,1596913740
5,Esperance,-33.87,121.9,281.15,93,99,6.2,AU,1596913740
6,Port Elizabeth,-33.92,25.57,287.59,47,0,0.99,ZA,1596913741
7,Hermanus,-34.42,19.23,285.93,89,1,6.71,ZA,1596913741
8,Klyuchevskiy,53.53,119.45,285.54,98,100,2.09,RU,1596913741
9,Palatka,29.65,-81.64,307.59,52,1,0.47,US,1596913741
10,Saldanha,-33.01,17.94,287.15,87,68,9.3,ZA,1596913741
11,Vaini,-21.2,-175.2,287.15,93,20,3.86,TO,1596913741
12,Albany,42.6,-73.97,304.26,51,7,0.8,US,1596913741
13,Severo-Kuril'sk,50.68,156.12,284.24,94,100,6.21,RU,1596913741
14,Ushuaia,-54.8,-68.3,276.15,79,75,11.3,AR,1596913608
15,Punta Arenas,-53.15,-70.92,278.15,72,20,11.3,CL,1596913503
16,Butaritari,3.07,172.79,301.41,80,0,7.31,KI,1596913741
17,Cockburn Town,21.46,-71.14,301.75,82,0,7.76,TC,1596913742
18,Rikitea,-23.12,-134.97,294.43,77,100,9.9,PF,1596913742
19,Kondinskoye,59.65,67.41,291.75,85,32,2.37,RU,1596913742
20,Anchorage,61.22,-149.9,288.15,71,90,2.6,US,1596913502
21,Guánica,17.97,-66.91,304.82,73,28,2.68,PR,1596913742
22,Mar del Plata,-38.0,-57.56,285.93,93,90,3.6,AR,1596913742
23,Port Alfred,-33.59,26.89,292.46,52,0,4.15,ZA,1596913742
24,Westport,41.14,-73.36,300.15,61,1,3.6,US,1596913742
25,Lata,40.16,-8.33,298.71,55,0,2.24,PT,1596913742
26,Thinadhoo,0.53,72.93,301.58,79,99,4.54,MV,1596913742
27,Cidreira,-30.18,-50.21,291.02,70,0,3.33,BR,1596913743
28,Catherinas Lust,6.4,-57.6,302.65,68,0,3.33,GY,1596913743
29,Bengkulu,-3.8,102.27,298.26,89,33,1.15,ID,1596913743
30,Ilulissat,69.22,-51.1,279.15,81,75,4.1,GL,1596913743
31,Praia,14.92,-23.51,301.15,61,20,8.7,CV,1596913515
32,Zhigansk,66.77,123.37,285.27,66,100,2.67,RU,1596913743
33,Auki,-8.77,160.7,298.6,86,100,2.52,SB,1596913743
34,Souillac,-20.52,57.52,292.15,82,75,1.5,MU,1596913743
35,Rodrigues Alves,-7.74,-72.65,304.15,62,40,2.1,BR,1596913743
36,Cape Town,-33.93,18.42,287.15,82,40,11.8,ZA,1596913613
37,Hong Kong,22.29,114.16,300.93,78,100,2.24,HK,1596913561
38,Mataura,-46.19,168.86,281.48,90,97,4.92,NZ,1596913744
39,Mackay,-21.15,149.2,287.15,93,40,3.1,AU,1596913744
40,Paita,-5.09,-81.11,297.15,60,2,4.6,PE,1596913744
41,Geraldton,-28.77,114.6,289.15,82,90,5.1,AU,1596913744
42,Puerto Ayora,-0.74,-90.35,295.15,78,75,7.7,EC,1596913744
43,Pevek,69.7,170.31,278.81,84,100,6.07,RU,1596913744
44,Isangel,-19.55,169.27,289.15,93,58,1.5,VU,1596913744
45,Olinda,-8.01,-34.86,301.15,65,40,5.7,BR,1596913744
46,Mikkeli,61.69,27.27,294.82,74,0,2.11,FI,1596913744
47,Newtownards,54.59,-5.69,292.15,63,0,3.6,GB,1596913665
48,Nālūt,30.33,10.85,303.54,28,0,10.08,LY,1596913745
49,Coyhaique,-45.58,-72.07,281.15,52,40,3.1,CL,1596913727
50,Humaitá,-7.51,-63.02,311.42,22,0,1.81,BR,1596913805
51,Srednekolymsk,67.45,153.68,283.89,85,90,4.21,RU,1596913805
52,Puerto Quijarro,-17.78,-57.77,310.02,14,0,1.59,BO,1596913805
53,Arraial do Cabo,-22.97,-42.03,299.15,73,0,7.2,BR,1596913805
54,Jamestown,42.1,-79.24,299.26,53,20,2.6,US,1596913805
55,Pangody,65.85,74.49,285.09,91,71,5.15,RU,1596913805
56,Havøysund,71.0,24.66,291.15,63,84,4.6,NO,1596913805
57,Huangzhou,30.45,114.8,300.15,100,20,3.0,CN,1596913805
58,Saint George,37.1,-113.58,303.15,10,1,2.1,US,1596913805
59,Kapaa,22.08,-159.32,301.15,74,40,6.2,US,1596913799
60,Saint Paul Harbor,57.79,-152.41,286.15,62,90,3.1,US,1596913806
61,Tuatapere,-46.13,167.68,281.48,90,100,4.92,NZ,1596913803
62,Castro,-24.79,-50.01,294.43,41,0,2.52,BR,1596913806
63,San Patricio,19.22,-104.7,303.15,84,75,10.3,MX,1596913806
64,Muros,42.78,-9.06,298.15,67,15,6.26,ES,1596913806
65,Atar,20.52,-13.05,314.88,14,3,5.57,MR,1596913806
66,Kavieng,-2.57,150.8,300.6,78,92,4.77,PG,1596913806
67,São Filipe,14.9,-24.5,300.77,63,16,2.6,CV,1596913806
68,San Policarpo,12.18,125.51,299.51,84,97,2.99,PH,1596913806
69,Vardø,70.37,31.11,283.15,100,90,7.7,NO,1596913806
70,Quatre Cocos,-20.21,57.76,292.15,82,75,1.5,MU,1596913806
71,Vakhrushev,48.98,142.97,284.61,74,0,1.78,RU,1596913806
72,Airai,-8.93,125.41,286.69,96,100,0.94,TL,1596913806
73,Nyurba,63.28,118.33,286.99,77,7,0.41,RU,1596913806
74,Xinzhi,36.5,111.7,298.5,63,0,1.52,CN,1596913806
75,Ribeira Grande,38.52,-28.7,297.15,60,75,2.1,PT,1596913806
76,Kaitangata,-46.28,169.85,282.04,68,76,4.92,NZ,1596913807
77,Ostrovnoy,68.05,39.51,283.66,91,62,2.34,RU,1596913807
78,Dunedin,-45.87,170.5,281.48,59,1,0.45,NZ,1596913793
79,Half Moon Bay,37.46,-122.43,299.26,68,5,2.6,US,1596913807
80,Hofn,64.25,-15.21,284.7,78,49,6.98,IS,1596913807
81,Hobart,-42.88,147.33,275.37,93,40,2.6,AU,1596913807
82,Constitución,-35.33,-72.42,288.66,58,58,5.42,CL,1596913807
83,George Town,5.41,100.34,301.15,83,20,1.0,MY,1596913807
84,Qaanaaq,77.48,-69.36,278.28,66,0,0.88,GL,1596913807
85,Ahipara,-35.17,173.17,284.26,86,48,3.19,NZ,1596913807
86,Bluff,-46.6,168.33,281.48,90,92,4.92,NZ,1596913807
87,Khatanga,71.97,102.5,283.96,93,100,3.86,RU,1596913807
88,Port Augusta,-32.5,137.77,283.15,93,90,2.1,AU,1596913807
89,Tuktoyaktuk,69.45,-133.04,282.15,100,90,10.3,CA,1596913807
90,Bosaso,11.28,49.18,306.5,45,0,3.99,SO,1596913807
91,New Norfolk,-42.78,147.06,274.82,90,10,0.99,AU,1596913807
92,La Joya,18.67,-99.47,299.15,57,90,2.1,MX,1596913808
93,Kuliyapitiya,7.47,80.04,300.15,83,40,4.1,LK,1596913808
94,Richards Bay,-28.78,32.04,292.86,57,0,7.91,ZA,1596913808
95,Plouzané,48.38,-4.62,293.15,82,12,4.6,FR,1596913808
96,Muhafazat Lahij,13.17,44.58,306.09,47,100,2.24,YE,1596913808
97,Makakilo City,21.35,-158.09,301.15,69,90,3.6,US,1596913705
98,Kruisfontein,-34.0,24.73,287.59,47,0,0.46,ZA,1596913808
99,Maniago,46.17,12.71,301.48,54,0,2.24,IT,1596913808
100,Bambous Virieux,-20.34,57.76,292.15,82,75,1.5,MU,1596913868
101,Broken Hill,-31.95,141.43,281.15,93,100,1.46,AU,1596913868
102,Atuona,-9.8,-139.03,299.25,75,4,10.47,PF,1596913868
103,Barrow,71.29,-156.79,279.15,93,90,1.5,US,1596913868
104,Port Blair,11.67,92.75,300.51,84,98,7.16,IN,1596913868
105,Dikson,73.51,80.55,278.81,94,100,9.55,RU,1596913868
106,Tahe,52.33,124.73,288.46,96,100,1.63,CN,1596913869
107,Katsuura,35.13,140.3,300.37,88,75,1.5,JP,1596913869
108,Bredasdorp,-34.53,20.04,287.15,46,0,2.1,ZA,1596913869
109,Pisco,-13.7,-76.22,291.15,77,40,4.1,PE,1596913645
110,Ushtobe,45.25,77.98,296.8,24,86,5.74,KZ,1596913869
111,Chokurdakh,70.63,147.92,277.05,77,97,5.25,RU,1596913869
112,Rassvet,46.83,40.75,297.3,50,0,5.57,RU,1596913869
113,Beidao,34.57,105.89,293.51,69,0,1.0,CN,1596913869
114,Igarka,67.47,86.58,289.09,79,100,3.25,RU,1596913869
115,Lebu,-37.62,-73.65,285.13,80,100,2.39,CL,1596913869
116,Lompoc,34.64,-120.46,294.82,64,4,3.1,US,1596913869
117,Margate,51.38,1.39,295.93,83,100,0.89,GB,1596913869
118,Hueyotlipan,18.9,-97.85,294.26,46,90,2.6,MX,1596913870
119,Yellowknife,62.46,-114.35,294.26,52,75,3.6,CA,1596913238
120,Fürstenfeld,47.05,16.08,297.59,61,0,0.79,AT,1596913870
121,Chui,-33.7,-53.46,291.11,81,7,3.22,UY,1596913870
122,Houma,29.6,-90.72,308.71,70,40,2.6,US,1596913679
123,Leningradskiy,69.38,178.42,279.98,76,0,3.66,RU,1596913870
124,Cherskiy,68.75,161.3,281.12,95,100,5.22,RU,1596913870
125,Sitka,57.05,-135.33,286.15,93,90,3.6,US,1596913787
126,Longyearbyen,78.22,15.64,284.15,81,75,3.1,SJ,1596913870
127,Hilo,19.73,-155.09,300.15,61,90,5.1,US,1596913870
128,Changji,44.02,87.32,300.15,42,0,2.0,CN,1596913870
129,Nikolskoye,59.7,30.79,293.15,60,0,1.0,RU,1596913870
130,Kwang Binh,17.48,106.6,300.41,79,100,2.32,VN,1596913870
131,Siocon,7.71,122.14,299.57,84,100,3.59,PH,1596913870
132,Saskylakh,71.92,114.08,284.65,88,100,3.41,RU,1596913871
133,Mahébourg,-20.41,57.7,292.15,82,75,1.5,MU,1596913871
134,Lüderitz,-26.65,15.16,286.15,76,0,2.6,NA,1596913871
135,Ponta do Sol,32.67,-17.1,297.15,73,40,4.6,PT,1596913871
136,Hamilton,39.18,-84.53,304.26,48,1,2.1,US,1596913871
137,Qandala,11.47,49.87,305.95,49,0,3.89,SO,1596913871
138,Warragul,-38.17,145.93,280.37,93,15,4.02,AU,1596913871
139,Mount Gambier,-37.83,140.77,283.15,93,90,3.6,AU,1596913871
140,Wanning,18.8,110.4,299.65,87,27,1.46,CN,1596913871
141,Asău,46.43,26.4,299.15,57,10,4.6,RO,1596913871
142,Chake Chake,-5.25,39.77,297.4,75,100,6.51,TZ,1596913871
143,Bethel,41.37,-73.41,301.15,54,75,1.5,US,1596913872
144,Rongcheng,30.63,117.85,300.06,81,100,1.6,CN,1596913872
145,Tara,56.89,74.37,291.09,89,0,2.74,RU,1596913872
146,Chino Valley,34.76,-112.45,307.59,16,1,7.7,US,1596913872
147,Morros,-9.45,-46.3,305.68,21,0,3.26,BR,1596913865
148,Waingapu,-9.66,120.26,295.69,85,13,2.95,ID,1596913872
149,Florence,43.77,11.25,304.26,35,0,3.6,IT,1596913872
150,Guane,22.2,-84.09,304.46,66,67,3.77,CU,1596913932
151,Yumen,40.28,97.2,293.5,26,1,2.12,CN,1596913932
152,Vila Franca do Campo,37.72,-25.43,297.15,73,40,1.0,PT,1596913932
153,Coahuayana Viejo,18.73,-103.68,301.15,78,40,4.1,MX,1596913932
154,Sangar,63.92,127.47,285.24,69,25,1.49,RU,1596913932
155,Saint-Michel-des-Saints,46.68,-73.92,299.82,5,39,0.89,CA,1596913933
156,East London,-33.02,27.91,294.21,37,0,3.52,ZA,1596913933
157,Umirim,-3.68,-39.35,299.82,68,0,9.39,BR,1596913933
158,Nadvoitsy,63.87,34.32,286.3,82,2,2.13,RU,1596913933
159,Gashua,12.87,11.05,301.85,57,99,3.97,NG,1596913933
160,Torbay,47.67,-52.73,295.15,68,75,5.1,CA,1596913933
161,Homer,59.64,-151.55,287.59,86,94,1.34,US,1596913933
162,Maxixe,-23.86,35.35,287.15,87,0,2.1,MZ,1596913933
163,Kumluca,36.37,30.29,300.41,72,0,1.06,TR,1596913933
164,Shadrinsk,56.09,63.63,291.18,89,74,4.15,RU,1596913933
165,Avarua,-21.21,-159.78,296.15,88,96,2.1,CK,1596913933
166,Tabuk,17.42,121.44,297.39,87,93,1.29,PH,1596913933
167,Raudeberg,61.99,5.14,287.15,71,0,3.6,NO,1596913934
168,Ixtapa,20.7,-105.2,305.93,70,40,5.1,MX,1596913934
169,Grenfell,-33.9,148.17,277.82,96,100,3.02,AU,1596913934
170,Vila Velha,-20.33,-40.29,298.15,65,20,4.6,BR,1596913934
171,Laas,46.62,10.7,293.15,64,20,1.0,IT,1596913934
172,Carnarvon,-24.87,113.63,295.15,64,90,12.9,AU,1596913863
173,Samarai,-10.62,150.67,299.08,87,100,3.63,PG,1596913934
174,Sur,22.57,59.53,301.84,69,100,3.79,OM,1596913934
175,Villarrica,-25.75,-56.43,301.75,35,0,1.98,PY,1596913934
176,Thompson,55.74,-97.86,296.15,49,40,6.7,CA,1596913934
177,Lakki,32.61,70.91,311.12,33,43,3.5,PK,1596913934
178,Vung Tau,10.35,107.08,299.77,83,100,4.65,VN,1596913934
179,Faanui,-16.48,-151.75,298.85,81,68,10.49,PF,1596913934
180,Brownsville,25.9,-97.5,307.15,52,20,7.2,US,1596913931
181,Saint-Philippe,-21.36,55.77,292.15,82,75,2.1,RE,1596913935
182,Marawi,8.0,124.29,296.48,92,99,2.68,PH,1596913935
183,Aswān,24.09,32.91,309.98,11,0,8.12,EG,1596913935
184,Ulaangom,49.98,92.07,287.54,57,21,0.56,MN,1596913935
185,Deputatsky,69.3,139.9,280.23,97,100,1.43,RU,1596913935
186,Andrews,32.32,-102.55,308.15,24,1,5.1,US,1596913935
187,Dongsheng,39.82,109.98,295.63,32,0,3.52,CN,1596913935
188,Mikuni,36.22,136.15,301.15,69,75,3.6,JP,1596913935
189,Balkanabat,39.51,54.37,300.09,52,0,4.19,TM,1596913935
190,College,64.86,-147.8,289.15,67,75,2.6,US,1596913892
191,Batemans Bay,-35.72,150.18,284.82,93,100,1.34,AU,1596913935
192,Auchi,7.07,6.27,295.98,84,2,2.05,NG,1596913935
193,Praia da Vitória,38.73,-27.07,297.15,64,40,1.87,PT,1596913935
194,Lagoa,39.05,-27.98,293.78,62,9,1.92,PT,1596913935
195,Fortuna,40.6,-124.16,293.71,68,0,1.34,US,1596913935
196,Sørland,67.67,12.69,286.74,90,100,7.49,NO,1596913936
197,City of San Pedro,14.35,121.02,298.71,94,100,1.0,PH,1596913936
198,Santa Rosa,14.31,121.11,298.71,94,100,1.0,PH,1596913758
199,Portland,45.52,-122.68,295.93,60,90,2.6,US,1596913490
200,Upernavik,72.79,-56.15,278.78,69,96,3.25,GL,1596913705
201,Saulkrasti,57.26,24.41,293.15,77,92,1.0,LV,1596913996
202,Severnyy,50.68,36.55,292.15,59,0,3.0,RU,1596913996
203,Sri Aman,1.24,111.46,298.15,100,100,0.5,MY,1596913996
204,Los Llanos de Aridane,28.66,-17.92,298.15,69,20,9.3,ES,1596913997
205,Guerrero Negro,27.98,-114.06,300.58,44,0,5.97,MX,1596913997
206,Banda Aceh,5.56,95.32,301.11,68,94,5.05,ID,1596913997
207,The Valley,18.22,-63.06,304.15,66,40,7.7,AI,1596913994
208,Terrace Bay,48.78,-87.1,292.15,88,90,3.6,CA,1596913766
209,Fort Nelson,58.81,-122.7,292.15,39,40,6.7,CA,1596913763
210,Turukhansk,65.82,87.98,289.03,75,0,2.91,RU,1596913997
211,Salalah,17.02,54.09,299.15,88,75,1.0,OM,1596913751
212,Semnan,35.57,53.4,299.04,38,0,3.43,IR,1596913997
213,Ohafia,5.62,7.83,296.62,83,45,1.66,NG,1596913997
214,Erenhot,43.65,111.98,295.93,36,0,2.65,CN,1596913997
215,Weinan,34.5,109.51,300.37,94,0,2.0,CN,1596913997
216,Nome,64.5,-165.41,282.59,81,75,5.7,US,1596913997
217,Sirte,31.21,16.59,298.95,75,0,6.2,LY,1596913997
218,Hanawa,40.18,140.79,293.97,91,100,1.78,JP,1596913997
219,Marsh Harbour,26.54,-77.06,302.24,69,100,3.47,BS,1596913997
220,Araouane,18.9,-3.53,312.23,23,0,4.48,ML,1596913998
221,Hutchinson,38.06,-97.93,310.37,41,1,6.2,US,1596913892
222,Joshīmath,30.57,79.57,294.62,61,100,0.37,IN,1596913998
223,Tommot,58.96,126.29,286.54,88,99,2.1,RU,1596913998
224,Peleduy,59.63,112.74,286.55,63,91,1.95,RU,1596913998
225,Saint-Pierre,-21.34,55.48,292.15,82,75,2.1,RE,1596913998
226,Provideniya,64.38,-173.3,282.37,67,27,1.58,RU,1596913998
227,Chhor,25.52,69.77,304.43,69,0,6.78,PK,1596913998
228,Weihe,33.0,105.32,292.77,79,0,1.7,CN,1596913998
229,Ruteng,-8.61,120.47,288.55,86,100,0.61,ID,1596913998
230,Comodoro Rivadavia,-45.87,-67.5,281.15,70,40,7.7,AR,1596913998
231,Tiksi,71.69,128.87,277.62,95,100,6.07,RU,1596913998
232,Camacha,33.08,-16.33,297.15,78,40,3.1,PT,1596913998
233,Touros,-5.2,-35.46,301.15,65,40,6.7,BR,1596913864
234,Kananga,-5.9,22.42,298.36,39,0,1.28,CD,1596913998
235,Meulaboh,4.14,96.13,298.42,80,100,2.01,ID,1596913999
236,San Ramon,37.78,-121.98,302.59,37,1,3.1,US,1596913999
237,Rapid City,44.08,-103.23,302.04,51,1,2.1,US,1596913916
238,Kenora,49.82,-94.43,299.82,39,20,3.6,CA,1596913999
239,Toropets,56.5,31.64,289.81,89,0,1.65,RU,1596913999
240,Āron,24.38,77.42,298.14,88,88,5.79,IN,1596913999
241,Flinders,-34.58,150.86,284.26,88,57,0.45,AU,1596913999
242,Tasiilaq,65.61,-37.64,280.15,81,75,4.6,GL,1596913999
243,Gorontalo,0.54,123.06,297.03,87,100,1.03,ID,1596913999
244,Lavrentiya,65.58,-171.0,279.87,75,38,1.59,RU,1596913999
245,Lorengau,-2.02,147.27,299.61,81,100,3.61,PG,1596914000
246,Naze,28.37,129.48,301.15,88,75,2.6,JP,1596914000
247,Morro Bay,35.37,-120.85,303.15,35,7,0.45,US,1596914000
248,Moree,-29.47,149.85,281.15,87,90,2.1,AU,1596914000
249,Palmer,42.16,-72.33,303.71,42,40,1.5,US,1596914000
250,Aras,42.56,-2.36,304.15,48,100,3.6,ES,1596914060
251,San Juan,-31.54,-68.54,292.17,26,62,1.57,AR,1596914060
252,Shache,38.42,77.24,303.65,16,100,1.81,CN,1596914060
253,Nchelenge,-9.35,28.73,294.86,50,15,2.56,ZM,1596914060
254,Havre-St-Pierre,50.23,-63.6,295.15,64,1,4.1,CA,1596914060
255,Eyl,7.98,49.82,301.36,49,0,10.17,SO,1596914060
256,Ville-Marie,47.33,-79.43,300.15,44,1,5.1,CA,1596914061
257,Grand Gaube,-20.01,57.66,292.04,74,5,2.72,MU,1596914061
258,Contai,21.78,87.75,302.26,84,100,4.3,IN,1596914061
259,Fortuna Foothills,32.66,-114.41,313.15,10,1,4.1,US,1596914061
260,Kavaratti,10.57,72.64,299.97,82,100,8.43,IN,1596914061
261,Riyadh,24.69,46.72,309.15,13,78,3.1,SA,1596914061
262,Clyde River,70.47,-68.59,278.15,93,90,7.7,CA,1596914061
263,Aleksandrovskiy Zavod,50.92,117.94,284.78,91,100,0.94,RU,1596914061
264,Bend,44.06,-121.32,295.93,42,0,0.45,US,1596914061
265,Gimli,50.63,-96.99,299.82,56,0,4.02,CA,1596914061
266,Wanaka,-44.7,169.15,272.04,84,1,1.34,NZ,1596914061
267,Sioux Lookout,50.1,-91.92,299.15,69,75,4.1,CA,1596914061
268,Kaka,37.35,59.61,299.81,30,0,2.54,TM,1596914061
269,Yarim,14.3,44.38,288.98,72,100,1.39,YE,1596914061
270,Terrace,54.52,-128.6,287.15,76,75,6.7,CA,1596914061
271,Arawa,-6.21,155.54,297.85,85,100,2.0,PG,1596914062
272,Batagay-Alyta,67.8,130.41,283.07,78,99,0.89,RU,1596914062
273,Mullovka,54.2,49.4,292.15,68,82,6.0,RU,1596914062
274,Narsaq,60.92,-46.05,287.15,67,75,4.6,GL,1596914062
275,Manado,1.49,124.85,299.15,78,20,3.1,ID,1596914062
276,Norman Wells,65.28,-126.83,289.15,82,75,2.25,CA,1596914062
277,Vanderhoof,54.02,-124.02,289.56,44,85,5.54,CA,1596913791
278,Noumea,-22.28,166.46,290.15,93,34,1.0,NC,1596914062
279,Hay River,60.82,-115.8,294.15,52,75,4.6,CA,1596914062
280,Cabo San Lucas,22.89,-109.91,306.15,46,5,5.1,MX,1596913964
281,Rusape,-18.53,32.13,281.93,75,0,1.68,ZW,1596914063
282,Meadow Lake,34.8,-106.54,304.82,18,1,2.82,US,1596914063
283,Kholmogory,64.22,41.66,286.15,82,75,3.0,RU,1596914063
284,Onguday,50.75,86.15,284.8,79,55,0.32,RU,1596914063
285,Timrå,62.49,17.33,297.59,60,100,1.5,SE,1596914063
286,Novobirilyussy,56.95,90.67,290.19,69,28,1.48,RU,1596914063
287,Volnovakha,47.6,37.5,300.93,100,4,6.71,UA,1596914063
288,Rosarito,32.33,-117.03,300.37,57,1,3.1,MX,1596914063
289,Gainesville,29.65,-82.32,306.15,62,20,1.87,US,1596913862
290,Ucluelet,48.93,-125.55,289.15,87,40,2.1,CA,1596914064
291,Sorong,-0.88,131.25,298.74,82,100,2.71,ID,1596913925
292,Vanimo,-2.67,141.3,298.79,82,94,0.95,PG,1596914064
293,Veshenskaya,49.63,41.73,292.65,63,0,4.58,RU,1596914064
294,Aykhal,66.0,111.5,288.15,77,100,2.0,RU,1596914064
295,Jiaojiang,28.68,121.44,300.93,85,66,0.89,CN,1596914065
296,Mucuri,-18.09,-39.55,295.95,74,56,4.24,BR,1596914065
297,Juegang,32.32,121.19,299.26,91,100,3.97,CN,1596914065
298,Majholi,23.5,79.92,297.41,93,8,4.15,IN,1596914065
299,La Ronge,55.1,-105.28,289.15,87,90,8.7,CA,1596914065
300,Fairbanks,64.84,-147.72,289.15,67,40,2.6,US,1596913860
301,Iqaluit,63.75,-68.51,287.15,44,20,6.2,CA,1596913993
302,San Vicente,-26.62,-54.13,298.31,32,0,1.33,AR,1596914125
303,Port Hawkesbury,45.62,-61.35,300.15,47,1,1.5,CA,1596914125
304,Alice Springs,-23.7,133.88,277.15,80,0,2.1,AU,1596914057
305,Cururupu,-1.83,-44.87,303.97,51,13,2.46,BR,1596914126
306,Rome,43.21,-75.46,301.15,54,20,2.6,US,1596913924
307,Cap Malheureux,-19.98,57.61,292.04,74,7,2.16,MU,1596914126
308,Pacific Grove,36.62,-121.92,296.48,60,1,3.1,US,1596914126
309,Walvis Bay,-22.96,14.51,287.04,76,0,2.1,NA,1596914126
310,Nanortalik,60.14,-45.24,279.9,88,45,5.85,GL,1596914126
311,Oskemen,49.96,82.61,287.15,82,0,1.0,KZ,1596914126
312,Vao,-22.67,167.48,294.25,70,47,4.58,NC,1596914126
313,Ano Poroia,41.28,23.03,295.93,93,83,2.87,GR,1596914126
314,Langxiang,46.95,128.88,289.36,94,100,1.14,CN,1596914127
315,Meïganga,6.52,14.3,292.68,96,100,1.14,CM,1596914127
316,‘Āhuimanu,21.44,-157.84,301.15,69,75,6.2,US,1596914127
317,Stann Creek Town,16.97,-88.23,303.15,79,40,4.1,BZ,1596914047
318,Itigi,-5.7,34.48,292.7,53,27,5.52,TZ,1596914127
319,Yuzhno-Sukhokumsk,44.66,45.64,302.75,31,0,3.25,RU,1596914127
320,Sémbé,1.65,14.58,295.45,88,82,1.42,CG,1596914127
321,Mossamedes,-15.2,12.15,289.65,83,23,4.71,AO,1596913926
322,Puerto Madero,14.72,-92.42,306.15,59,20,1.0,MX,1596914127
323,Acapulco de Juárez,16.86,-99.89,300.15,83,75,4.1,MX,1596914127
324,Trencin,48.83,18.25,296.48,75,0,1.96,SK,1596914127
325,Aksu,41.12,80.26,304.06,22,84,3.54,CN,1596914127
326,Carmelo,-33.99,-58.29,292.15,82,87,3.1,UY,1596914127
327,Churapcha,62.0,132.43,286.57,58,0,0.76,RU,1596914128
328,Mungwi,-10.17,31.37,290.02,48,48,2.52,ZM,1596914128
329,Gizo Government Station,-8.1,156.84,300.78,76,71,2.67,SB,1596914128
330,Boden,65.83,21.69,291.15,88,0,3.6,SE,1596914128
331,Isabela,6.71,121.97,300.15,94,75,2.6,PH,1596914128
332,Elliot Lake,46.38,-82.63,298.15,53,1,6.2,CA,1596914128
333,Gouré,13.98,10.27,300.37,69,96,0.45,NE,1596914128
334,Padang,-0.95,100.35,298.89,72,96,1.75,ID,1596914128
335,Villa María,-32.41,-63.24,292.59,63,74,0.45,AR,1596914128
336,Hailun,47.45,126.93,289.9,97,100,4.16,CN,1596914128
337,Sola,-13.88,167.55,299.15,83,75,3.1,VU,1596914129
338,Gazojak,41.19,61.4,301.13,30,0,4.01,TM,1596914129
339,Cayenne,4.93,-52.33,299.15,78,1,4.6,GF,1596914129
340,Port-Cartier,50.03,-66.87,297.15,57,20,5.1,CA,1596914129
341,Udachny,66.42,112.4,288.15,77,100,2.0,RU,1596914129
342,Charters Towers,-20.1,146.27,288.2,50,96,3.6,AU,1596914129
343,Bay Roberts,47.6,-53.26,299.82,68,75,5.1,CA,1596914129
344,Yangi Marg`ilon,40.43,71.72,300.15,34,40,5.1,UZ,1596914129
345,Atbasar,51.8,68.33,293.8,61,80,7.41,KZ,1596914129
346,Barra Patuca,15.8,-84.28,303.13,72,42,5.31,HN,1596914129
347,Blumenau,-26.92,-49.07,298.15,99,0,1.83,BR,1596914129
348,Terra Rica,-22.71,-52.62,300.69,25,0,2.32,BR,1596914129
349,Nikita,44.53,34.23,294.88,61,0,5.71,UA,1596914130
350,Rivadavia,-33.19,-68.46,291.93,26,5,4.11,AR,1596913970
351,Östersund,63.18,14.64,288.15,87,90,8.2,SE,1596914190
352,Tilichiki,60.47,166.1,282.93,66,0,2.19,RU,1596914190
353,Teahupoo,-17.83,-149.27,301.15,65,20,8.2,PF,1596914190
354,Coquimbo,-29.95,-71.34,286.15,82,90,4.1,CL,1596914190
355,Mazatlán,23.22,-106.42,307.15,63,40,3.6,MX,1596914029
356,Boa Vista,2.82,-60.67,298.15,88,90,1.0,BR,1596914037
357,Lalibela,12.03,39.03,288.12,88,100,1.3,ET,1596914100
358,Katangli,51.71,143.23,283.64,81,0,6.89,RU,1596914190
359,Manokwari,-0.87,134.08,299.04,80,100,3.35,ID,1596914190
360,São Gabriel da Cachoeira,-0.13,-67.09,301.15,78,75,2.1,BR,1596914011
361,Castelnaudary,43.32,1.95,307.15,34,75,2.6,FR,1596914190
362,Taoudenni,22.68,-3.98,317.0,9,0,7.07,ML,1596914190
363,Gambēla,8.25,34.58,294.4,91,100,1.06,ET,1596914190
364,Caconda,-13.73,15.07,287.75,32,0,1.57,AO,1596914190
365,Bouloupari,-21.87,166.05,290.15,93,78,1.0,NC,1596914190
366,Najrān,17.49,44.13,303.15,37,40,7.2,SA,1596914190
367,Binzhou,37.37,118.02,298.71,90,100,1.68,CN,1596914190
368,Alexandria,31.22,29.96,301.15,69,40,5.7,EG,1596913711
369,Shamary,57.34,58.22,288.38,96,100,4.05,RU,1596914190
370,Yar-Sale,66.83,70.83,283.49,91,100,5.95,RU,1596914191
371,Krasnosel'kup,65.7,82.47,290.38,57,97,4.71,RU,1596914191
372,Chiredzi,-21.05,31.67,288.95,51,0,1.87,ZW,1596914191
373,Neuquén,-38.95,-68.06,291.15,34,100,1.5,AR,1596914191
374,Tortolì,39.93,9.66,302.15,48,5,10.8,IT,1596914191
375,Tiznit Province,29.58,-9.5,300.4,51,0,1.46,MA,1596914191
376,Houston,29.76,-95.36,308.15,52,75,3.1,US,1596914002
377,Mehtar Lām,34.67,70.21,307.15,56,75,1.5,AF,1596914191
378,Kahului,20.89,-156.47,302.15,62,20,8.7,US,1596914191
379,Mizdah,31.45,12.98,298.2,51,0,6.56,LY,1596914191
380,Tuy Hoa,13.08,109.3,299.41,79,97,5.35,VN,1596914191
381,Talnakh,69.49,88.4,285.15,81,40,3.0,RU,1596914191
382,Ancud,-41.87,-73.82,284.82,81,40,6.2,CL,1596914191
383,Inuvik,68.35,-133.72,284.15,93,90,5.1,CA,1596914191
384,Ţahţā,26.77,31.5,311.15,18,0,5.7,EG,1596914191
385,Husavik,66.04,-17.34,287.15,54,52,5.7,IS,1596914191
386,Hadejia,12.45,10.04,300.81,63,100,4.04,NG,1596914191
387,Wattegama,6.8,81.48,298.15,94,40,3.6,LK,1596914192
388,Mukhtolovo,55.46,43.2,287.34,87,0,2.46,RU,1596914192
389,Retalhuleu,14.53,-91.68,306.15,55,75,4.1,GT,1596914192
390,Kissidougou,9.18,-10.1,295.14,92,100,2.88,GN,1596914192
391,Bilma,18.69,12.92,308.1,32,100,1.68,NE,1596914192
392,Hasaki,35.73,140.83,296.15,100,75,1.5,JP,1596914192
393,Kiama,-34.68,150.87,284.26,94,66,2.24,AU,1596914192
394,Buraidah,26.33,43.98,308.15,23,100,3.6,SA,1596914192
395,Abalak,58.13,68.59,290.95,87,100,2.53,RU,1596914192
396,Spirit River,55.78,-118.84,287.15,58,75,8.2,CA,1596914192
397,Kununurra,-15.77,128.73,286.15,35,6,1.5,AU,1596914192
398,Kirchheim,50.83,9.57,302.04,45,73,0.9,DE,1596914192
399,Osorno,-40.57,-73.15,284.15,93,90,5.7,CL,1596914192
400,Gutiérrez Zamora,20.45,-97.08,303.15,66,75,4.1,MX,1596914252
401,Praia,14.92,-23.51,301.15,61,20,8.7,CV,1596914114
402,Gossaigaon,26.45,89.99,300.32,90,100,1.42,IN,1596914252
403,Chara,56.91,118.26,285.6,78,67,2.26,RU,1596914252
404,Diapaga,12.07,1.79,297.52,85,33,2.13,BF,1596914252
405,Aksha,50.28,113.29,284.28,88,100,0.87,RU,1596914253
406,Amontada,-3.36,-39.83,307.85,29,10,3.35,BR,1596914253
407,Ekhabi,53.51,142.97,284.2,81,0,4.61,RU,1596914253
408,Nuuk,64.18,-51.72,280.15,93,75,6.2,GL,1596914253
409,Krasnyy Luch,48.14,38.94,293.29,55,0,5.49,UA,1596914253
410,Davila,18.47,120.58,298.15,100,75,1.0,PH,1596914253
411,Lisala,2.15,21.52,295.55,95,98,0.9,CD,1596914253
412,Caucayá,-0.19,-74.78,298.08,76,100,1.67,CO,1596914253
413,Sivaki,52.63,126.75,287.45,96,100,3.81,RU,1596914253
414,Payakumbuh,-0.22,100.63,294.17,83,97,1.54,ID,1596914253
415,Xiaoshi,41.3,124.12,296.15,100,40,1.0,CN,1596914253
416,Manggar,-2.88,108.27,299.97,86,36,4.58,ID,1596914253
417,Nakamura,32.98,132.93,298.18,94,29,0.77,JP,1596914253
418,Ternate,0.8,127.4,299.77,79,87,2.09,ID,1596914062
419,Yangjiang,21.85,111.97,299.81,89,89,1.24,CN,1596914253
420,Monforte de Lemos,42.52,-7.51,299.82,59,13,2.57,ES,1596914253
421,Omboué,-1.57,9.26,296.58,79,95,3.65,GA,1596914253
422,Tagusao,9.19,117.81,300.73,74,84,4.47,PH,1596914254
423,Santa Rosalía,27.32,-112.28,306.17,47,0,2.43,MX,1596914254
424,Proddatūr,14.73,78.55,301.58,64,100,7.82,IN,1596914254
425,Lethem,3.38,-59.8,302.5,71,100,0.27,GY,1596914254
426,Vostok,46.49,135.88,285.68,98,97,1.4,RU,1596914254
427,Jinxiang,22.86,115.7,300.43,84,94,1.38,CN,1596914254
428,San Quintín,30.48,-115.95,298.04,55,0,7.35,MX,1596914254
429,San Jose,37.34,-121.89,301.48,39,1,2.1,US,1596914162
430,Warri,5.52,5.75,297.2,75,0,2.54,NG,1596914155
431,Leh,34.17,77.58,292.43,37,49,2.09,IN,1596914157
432,Novopokrovka,49.84,36.55,294.15,52,0,3.0,UA,1596914254
433,Anadyr,64.75,177.48,284.15,87,75,3.0,RU,1596914254
434,Namuac,18.61,121.17,299.56,81,99,2.24,PH,1596914254
435,Goderich,43.75,-81.72,300.37,65,0,0.89,CA,1596914139
436,Harper,4.38,-7.72,297.27,78,19,3.48,LR,1596914254
437,San Felipe,10.34,-68.74,300.72,78,72,2.25,VE,1596914006
438,Troitskoye,52.98,84.68,289.43,83,0,2.79,RU,1596914254
439,Firovo,57.48,33.7,289.52,88,100,2.06,RU,1596914255
440,Kismayo,-0.36,42.55,298.09,72,32,9.12,SO,1596914255
441,Dubai,25.26,55.3,309.15,60,100,2.6,AE,1596913990
442,Esim,4.87,-2.24,296.68,81,66,3.05,GH,1596914255
443,Lázaro Cárdenas,17.96,-102.2,301.02,83,100,4.84,MX,1596914240
444,Smithers,54.78,-127.17,289.15,55,75,1.5,CA,1596914255
445,Cocobeach,1.0,9.58,299.15,78,20,3.6,GA,1596914255
446,La Ferté-Bernard,48.19,0.65,308.15,38,0,1.5,FR,1596914255
447,Katherine,-14.47,132.27,288.15,38,27,3.1,AU,1596914255
448,Mount Isa,-20.73,139.5,283.15,57,0,1.0,AU,1596914255
449,Burnie,-41.07,145.92,276.48,80,10,1.79,AU,1596914255
450,Kalabo,-14.97,22.68,292.65,31,0,1.53,ZM,1596914315
451,Pangnirtung,66.15,-65.71,281.15,81,75,5.1,CA,1596914315
452,Mareeba,-17.0,145.43,295.15,68,90,1.5,AU,1596914315
453,Gympie,-26.19,152.66,282.04,88,0,0.45,AU,1596914315
454,Mayo,38.89,-76.51,302.04,65,75,2.31,US,1596914315
455,Kieta,-6.22,155.63,298.22,85,100,2.88,PG,1596914315
456,Quang Ngai,15.12,108.8,298.33,87,98,2.03,VN,1596914315
457,Sinnamary,5.38,-52.95,301.16,82,3,4.52,GF,1596914316
458,Egvekinot,66.32,-179.17,281.17,66,78,1.28,RU,1596914316
459,Piaçabuçu,-10.41,-36.43,297.69,81,27,5.78,BR,1596914316
460,Tlalmanalco,19.22,-98.8,295.15,43,75,3.1,MX,1596914316
461,Genhe,50.78,121.52,287.6,94,100,1.28,CN,1596914316
462,Mogapinyana,-22.37,27.6,288.15,67,0,2.1,BW,1596914316
463,La Paz,-16.5,-68.15,289.15,8,20,4.1,BO,1596913839
464,Liwale,-9.77,37.93,293.71,38,72,2.37,TZ,1596914316
465,Nagua,19.38,-69.85,303.15,84,40,3.1,DO,1596914316
466,Ullapool,57.9,-5.16,289.82,70,7,0.45,GB,1596914316
467,Seydişehir,37.42,31.85,294.31,49,0,0.9,TR,1596914316
468,Marzuq,14.4,46.47,300.89,46,100,3.63,YE,1596914316
469,Bandar-e Lengeh,26.56,54.88,307.15,79,100,5.32,IR,1596914316
470,Marsá Maţrūḩ,31.35,27.25,299.15,74,0,4.6,EG,1596914316
471,Caucaia,-3.74,-38.65,302.15,54,0,7.7,BR,1596914316
472,Gáldar,28.15,-15.65,297.59,64,20,14.4,ES,1596914316
473,Okha,53.57,142.95,284.85,80,0,4.62,RU,1596914316
474,Nelson Bay,-32.72,152.15,282.59,87,0,7.2,AU,1596914316
475,Muroto-misakicho,33.28,134.15,300.71,85,2,5.33,JP,1596914316
476,Labuhan,-6.88,112.21,297.75,85,18,3.43,ID,1596914316
477,Rocha,-34.48,-54.33,291.49,85,99,4.02,UY,1596914317
478,Bartica,6.4,-58.62,303.15,74,20,2.1,GY,1596914317
479,Alofi,-19.06,-169.92,290.15,93,6,0.5,NU,1596914058
480,Luwuk,-0.95,122.79,298.02,79,16,1.37,ID,1596914223
481,Encruzilhada do Sul,-30.54,-52.52,293.72,71,0,1.71,BR,1596914317
482,Mombetsu,44.35,143.35,290.93,75,65,2.68,JP,1596914317
483,Mago,53.25,140.18,281.85,88,0,0.99,RU,1596914317
484,Shubarkuduk,49.14,56.49,294.96,71,25,1.73,KZ,1596914317
485,Mugur-Aksy,50.35,90.5,280.68,78,4,0.59,RU,1596914317
486,Nuquí,5.71,-77.27,305.15,66,40,3.1,CO,1596914163
487,Bhachāu,23.28,70.35,302.24,78,98,6.96,IN,1596914317
488,Tura,25.52,90.22,297.8,96,100,3.22,IN,1596914317
489,Lac du Bonnet,50.25,-96.06,300.37,56,0,4.02,CA,1596914317
490,Kiryat Gat,31.61,34.76,301.48,81,1,1.43,IL,1596914317
491,Sulangan,11.14,123.72,302.16,72,100,5.67,PH,1596914317
492,Haines Junction,60.75,-137.51,287.54,53,87,2.64,CA,1596914317
493,Måløy,61.94,5.11,287.15,71,0,3.6,NO,1596914317
494,Nouadhibou,20.93,-17.03,297.15,73,0,12.3,MR,1596914317
495,Pargas,60.31,22.3,294.15,52,0,2.6,FI,1596914317
496,Dicabisagan,17.08,122.42,299.58,83,100,2.45,PH,1596914317
497,Porto Murtinho,-21.7,-57.88,309.01,14,0,1.45,BR,1596914317
498,Nicoya,10.15,-85.45,303.15,62,75,11.3,CR,1596914318
499,Verkhnyaya Inta,65.98,60.31,281.78,95,61,2.73,RU,1596914318
500,Kaeo,-35.1,173.78,280.93,3,5,1.79,NZ,1596914378
501,Cap-aux-Meules,47.38,-61.86,297.15,69,20,4.6,CA,1596914378
502,Mahon,39.89,4.27,300.15,65,0,3.6,ES,1596914378
503,Port Hardy,50.7,-127.42,289.15,82,75,2.1,CA,1596914378
504,Bichura,50.59,107.6,285.76,89,100,1.74,RU,1596914378
505,Kitob,39.08,66.83,296.96,29,6,0.47,UZ,1596914378
506,Khāsh,28.22,61.22,295.81,34,100,1.14,IR,1596914378
507,Helong,42.54,129.0,289.62,89,84,1.33,CN,1596914378
508,Oceanside,33.2,-117.38,300.37,61,1,4.6,US,1596914291
509,General Roca,-39.03,-67.58,291.15,34,100,1.5,AR,1596914378
510,Port Macquarie,-31.43,152.92,278.15,97,1,3.53,AU,1596914153
511,Saint Anthony,45.02,-93.22,301.48,69,90,2.6,US,1596914378
512,Nizwá,22.93,57.53,305.79,30,100,2.92,OM,1596914378
513,Mandalgovi,45.76,106.27,287.6,67,98,3.97,MN,1596914378
514,Jumla,29.27,82.18,291.89,73,100,0.59,NP,1596914103
515,Tartagal,-22.52,-63.8,301.21,29,0,2.51,AR,1596914378
516,Nayoro,44.35,142.46,287.89,86,86,0.63,JP,1596914378
517,Soyaux,45.65,0.2,304.15,48,0,4.6,FR,1596914379
518,Zhanakorgan,43.91,67.25,299.11,32,0,3.85,KZ,1596914379
519,Helsingborg,56.05,12.69,294.26,66,100,0.89,SE,1596914254
520,Poum,-20.23,164.02,294.29,76,34,5.47,NC,1596914379
521,Grindavik,63.84,-22.43,283.15,93,90,6.2,IS,1596914379
522,Kalmunai,7.42,81.82,299.83,81,100,2.79,LK,1596914379
523,Chilca,-12.52,-76.74,291.15,72,75,3.1,PE,1596914379
524,Gaza,31.5,34.47,301.48,74,75,3.6,PS,1596914379
525,Itoman,26.12,127.67,300.15,94,75,7.2,JP,1596914379
526,Berbérati,4.26,15.79,294.48,96,100,1.0,CF,1596914379
527,Roald,62.58,6.13,287.15,71,75,4.6,NO,1596914379
528,Aksarka,66.56,67.8,282.25,92,94,3.55,RU,1596914379
529,Bārmer,25.75,71.38,302.97,70,31,5.09,IN,1596914379
530,Samarkand,39.65,66.96,298.15,36,31,3.1,UZ,1596914379
531,Orda,57.2,56.91,286.94,87,100,5.65,RU,1596914379
532,Neiafu,-18.65,-173.98,292.15,93,75,2.28,TO,1596914379
533,Appleton,44.26,-88.42,297.04,69,75,4.1,US,1596914269
534,Korampallam,8.77,78.1,301.09,70,100,5.91,IN,1596914379
535,Ghorāwal,24.77,82.78,300.05,85,100,3.29,IN,1596914379
536,Darhan,49.49,105.92,285.93,84,99,0.88,MN,1596914380
537,Forsytheganj,52.63,29.73,290.98,86,2,1.7,BY,1596914380
538,Tomatlán,19.93,-105.25,306.16,62,71,3.96,MX,1596914380
539,Hervey Bay,-25.3,152.85,285.93,78,0,1.79,AU,1596914380
540,Ayorou,14.73,0.92,303.81,57,99,5.95,NE,1596914380
541,Polovinnoye,54.79,65.99,292.2,83,100,2.31,RU,1596914380
542,Lancaster,40.25,-76.25,302.59,61,75,2.1,US,1596914154
543,Dromolaxia,34.88,33.59,300.93,78,20,1.5,CY,1596914380
544,Molteno,-31.4,26.36,285.34,40,0,8.56,ZA,1596914380
545,Buala,-8.14,159.59,299.16,83,100,2.41,SB,1596914380
546,Port Keats,-14.25,129.55,292.12,34,40,4.35,AU,1596914380
547,Codrington,-38.27,141.97,283.43,84,18,7.14,AU,1596914380
548,Kortkeros,61.81,51.58,287.15,93,20,1.0,RU,1596914380
549,Tabou,4.42,-7.35,297.29,76,47,3.39,CI,1596914380
