,City,Lat,Lng,Max Temp,Humidity,Cloudiness,Wind Speed,Country,Date
0,Ribeira Grande,38.52,-28.7,296.15,69,75,1.5,PT,1596920945
1,Punta Arenas,-53.15,-70.92,277.15,69,4,9.3,CL,1596920715
2,Hambantota,6.12,81.12,300.03,75,100,6.71,LK,1596920945
3,Mount Gambier,-37.83,140.77,283.15,93,90,4.1,AU,1596920945
4,San Patricio,19.22,-104.7,301.15,83,75,4.1,MX,1596920945
5,George Town,5.41,100.34,300.15,88,20,0.5,MY,1596920945
6,Provideniya,64.38,-173.3,282.89,63,28,2.11,RU,1596920945
7,Katsuura,35.13,140.3,300.93,83,75,1.0,JP,1596920945
8,Pierre,44.37,-100.35,301.15,58,90,4.1,US,1596920945
9,Busselton,-33.65,115.33,285.93,78,100,5.81,AU,1596920945
10,Mahébourg,-20.41,57.7,293.15,94,75,6.2,MU,1596920945
11,Kasama,-10.21,31.18,287.79,55,76,3.78,ZM,1596920945
12,Albany,42.6,-73.97,302.59,46,13,0.67,US,1596920945
13,Carnarvon,-24.87,113.63,295.15,68,90,12.9,AU,1596920946
14,Jamestown,42.1,-79.24,298.15,53,40,2.6,US,1596920946
15,Ambilobe,-13.2,49.05,291.91,85,9,1.04,MG,1596920946
16,Chalmette,29.94,-89.96,305.15,55,1,4.6,US,1596920946
17,Chapais,49.78,-74.85,299.15,44,90,6.2,CA,1596920946
18,Yellowknife,62.46,-114.35,294.82,49,75,2.1,CA,1596920834
19,Ushuaia,-54.8,-68.3,276.15,90,40,10.8,AR,1596920850
20,Tura,25.52,90.22,297.53,97,100,2.62,IN,1596920946
21,Tommot,58.96,126.29,287.07,85,97,1.35,RU,1596920946
22,Bluff,-46.6,168.33,282.59,86,98,7.15,NZ,1596920946
23,Tzucacab,20.07,-89.05,309.15,36,69,3.05,MX,1596920946
24,Saskylakh,71.92,114.08,284.47,90,100,3.99,RU,1596920946
25,Avarua,-21.21,-159.78,297.15,88,89,1.0,CK,1596920946
26,Vaini,-21.2,-175.2,293.15,72,20,1.0,TO,1596920947
27,Saint Paul Harbor,57.79,-152.41,286.15,66,90,3.6,US,1596920947
28,Puerto Ayora,-0.74,-90.35,297.15,69,75,8.2,EC,1596920947
29,Sitka,57.05,-135.33,286.15,93,90,3.1,US,1596920947
30,Tessalit,20.2,1.01,308.78,31,0,4.89,ML,1596920947
31,Cherskiy,68.75,161.3,281.61,80,83,5.49,RU,1596920947
32,Genhe,50.78,121.52,287.9,94,100,0.85,CN,1596920947
33,Ust-Nera,64.57,143.2,289.48,52,22,0.38,RU,1596920947
34,Hilo,19.73,-155.09,301.15,65,90,2.6,US,1596920947
35,Hurghada,27.26,33.81,309.15,22,8,11.8,EG,1596920947
36,Ilulissat,69.22,-51.1,280.15,65,40,2.1,GL,1596920947
37,Huarmey,-10.07,-78.15,292.38,66,14,4.12,PE,1596920947
38,Thompson,55.74,-97.86,293.15,60,75,7.7,CA,1596920947
39,Pitimbu,-7.47,-34.81,299.15,78,20,6.2,BR,1596920948
40,Verkhoyansk,67.54,133.38,289.26,48,89,1.13,RU,1596920948
41,Dikson,73.51,80.55,278.15,95,100,9.61,RU,1596920948
42,Zwedru,6.07,-8.13,293.99,91,97,1.07,LR,1596920948
43,Rikitea,-23.12,-134.97,294.55,74,65,9.81,PF,1596920948
44,Opelousas,30.53,-92.08,301.15,74,75,3.1,US,1596920948
45,Makakilo City,21.35,-158.09,302.15,66,75,4.6,US,1596920948
46,Jalu,29.03,21.55,301.28,45,0,8.47,LY,1596920948
47,Kapaa,22.08,-159.32,300.15,83,75,7.2,US,1596920934
48,Volchikha,52.03,80.38,290.42,72,0,2.73,RU,1596920948
49,Cape Town,-33.93,18.42,288.15,87,90,10.8,ZA,1596920482
50,Port Alfred,-33.59,26.89,293.15,39,0,3.77,ZA,1596920949
51,Mataura,-46.19,168.86,282.59,86,100,7.15,NZ,1596920949
52,Castro,-24.79,-50.01,288.57,59,0,1.46,BR,1596920949
53,Santa Catalina,9.33,122.86,300.06,78,99,3.38,PH,1596920949
54,Saint-François,46.42,3.91,299.15,41,0,1.98,FR,1596920949
55,Hong Kong,22.29,114.16,300.93,78,100,2.24,HK,1596920795
56,Santa Cruz de la Sierra,-17.8,-63.17,304.15,40,40,5.7,BO,1596920950
57,Yajalón,17.23,-92.33,296.32,95,94,1.13,MX,1596920950
58,Gravdal,68.12,13.5,286.96,90,100,8.14,NO,1596920950
59,Ponta do Sol,32.67,-17.1,296.15,73,40,6.2,PT,1596920950
60,Vao,-22.67,167.48,294.37,71,94,4.51,NC,1596920950
61,Rawson,-43.3,-65.1,288.49,41,100,10.65,AR,1596920950
62,Mayor Pablo Lagerenza,-19.93,-60.77,307.29,17,0,2.11,PY,1596920950
63,Honiara,-9.43,159.95,296.15,94,75,2.1,SB,1596920950
64,Nikolskoye,59.7,30.79,291.48,77,0,2.0,RU,1596920950
65,Geraldton,-28.77,114.6,288.15,87,90,7.2,AU,1596920950
66,Severo-Kuril'sk,50.68,156.12,284.13,93,100,7.4,RU,1596920950
67,Ţahţā,26.77,31.5,308.15,23,18,5.1,EG,1596920950
68,Mapiri,-15.25,-68.17,302.36,31,5,1.44,BO,1596920950
69,Higashine,38.44,140.4,295.15,94,75,2.1,JP,1596920950
70,Hobart,-42.88,147.33,275.15,93,20,2.6,AU,1596920855
71,Kupang,-10.17,123.58,295.4,81,10,3.03,ID,1596920951
72,Caratinga,-19.79,-42.14,290.83,64,10,1.63,BR,1596920816
73,Takoradze,4.88,-1.76,296.18,86,100,3.27,GH,1596920951
74,Mar del Plata,-38.0,-57.56,287.15,93,90,3.6,AR,1596920951
75,Rantauprapat,2.1,99.83,295.98,89,68,1.1,ID,1596920951
76,Krasnosel'kup,65.7,82.47,288.97,67,55,4.83,RU,1596920951
77,Qaanaaq,77.48,-69.36,278.51,66,0,0.96,GL,1596920951
78,Chokurdakh,70.63,147.92,277.93,74,94,4.52,RU,1596920951
79,Vestmanna,62.16,-7.17,284.15,87,44,3.6,FO,1596920951
80,Hithadhoo,-0.6,73.08,300.99,82,93,5.54,MV,1596920951
81,Barranca,-10.75,-77.77,291.14,71,6,3.7,PE,1596920951
82,Hermanus,-34.42,19.23,285.37,91,0,5.36,ZA,1596920951
83,Charters Towers,-20.1,146.27,287.09,52,98,4.62,AU,1596920951
84,Arraial do Cabo,-22.97,-42.03,296.15,73,0,6.7,BR,1596920952
85,Isangel,-19.55,169.27,289.15,93,16,1.0,VU,1596920952
86,Cidreira,-30.18,-50.21,288.88,76,0,4.18,BR,1596920952
87,Coyhaique,-45.58,-72.07,279.15,56,40,9.3,CL,1596920952
88,Saint-Augustin,51.23,-58.65,295.87,57,100,9.99,CA,1596920952
89,Khatanga,71.97,102.5,283.84,92,100,3.2,RU,1596920952
90,San Isidro,-12.12,-77.05,292.15,68,75,3.6,PE,1596920952
91,Kavieng,-2.57,150.8,300.23,78,88,3.04,PG,1596920952
92,Mackenzie,55.3,-123.17,289.15,44,90,5.7,CA,1596920952
93,Tuktoyaktuk,69.45,-133.04,283.15,100,90,10.3,CA,1596920952
94,Kasongo-Lunda,-6.47,16.82,296.99,41,40,0.34,CD,1596920952
95,Mossamedes,-15.2,12.15,288.93,86,17,5.39,AO,1596920952
96,Airai,-8.93,125.41,286.46,87,100,1.03,TL,1596920952
97,New Norfolk,-42.78,147.06,274.82,90,14,0.98,AU,1596920952
98,Vostochnyy,55.82,37.87,293.15,77,36,2.0,RU,1596920952
99,Paka,4.64,103.44,299.15,94,84,1.27,MY,1596920952
100,Balabac,7.99,117.06,301.28,78,90,4.57,PH,1596920954
101,Hanna,51.63,-111.9,294.26,44,96,3.13,CA,1596920954
102,Makkah al Mukarramah,21.43,39.83,305.77,35,94,0.56,SA,1596920954
103,Cap Malheureux,-19.98,57.61,292.04,80,23,0.45,MU,1596920954
104,Kavaratti,10.57,72.64,299.09,87,100,7.95,IN,1596920954
105,Khabary,53.63,79.53,290.34,85,3,2.82,RU,1596920954
106,Sergeevka,53.88,67.42,291.27,77,89,2.19,KZ,1596920954
107,Puksoozero,62.59,40.61,282.97,97,0,1.88,RU,1596920808
108,Sawtell,-30.38,153.1,280.37,100,28,1.0,AU,1596920954
109,Sur,22.57,59.53,302.32,71,100,2.18,OM,1596920954
110,Oranjemund,-28.55,16.43,287.05,71,81,6.56,NA,1596920954
111,Kahului,20.89,-156.47,304.15,52,40,8.2,US,1596920954
112,Maceió,-9.67,-35.74,297.15,88,75,3.6,BR,1596920925
113,Ubari,26.59,12.78,305.75,12,0,4.22,LY,1596920954
114,Saint-Philippe,-21.36,55.77,293.15,77,90,9.8,RE,1596920954
115,Peniche,39.36,-9.38,293.71,84,12,4.47,PT,1596920955
116,Bengkulu,-3.8,102.27,298.09,88,33,1.69,ID,1596920955
117,Kaoma,-14.78,24.8,289.25,45,0,3.24,ZM,1596920955
118,Chaparral,3.72,-75.48,303.91,37,1,3.9,CO,1596920955
119,Khāsh,28.22,61.22,296.82,36,100,4.41,IR,1596920955
120,Almaznyy,48.04,40.05,297.15,38,0,5.0,RU,1596920955
121,Necochea,-38.55,-58.74,285.37,97,100,2.68,AR,1596920955
122,Samarai,-10.62,150.67,299.27,87,99,4.05,PG,1596920955
123,Kenai,60.55,-151.26,290.37,63,90,1.5,US,1596920955
124,Bredasdorp,-34.53,20.04,288.15,41,18,3.1,ZA,1596920955
125,São João da Barra,-21.64,-41.05,297.15,64,0,6.2,BR,1596920955
126,Garhwa,24.18,83.82,299.47,88,99,2.46,IN,1596920955
127,Bambous Virieux,-20.34,57.76,293.15,94,75,6.2,MU,1596920956
128,High Level,58.52,-117.14,294.15,46,20,4.1,CA,1596920884
129,Beringovskiy,63.05,179.32,283.55,72,13,2.53,RU,1596920956
130,Barrow,71.29,-156.79,280.15,93,90,1.5,US,1596920956
131,Flinders,-34.58,150.86,283.15,87,93,0.45,AU,1596920956
132,Novo Aripuanã,-5.12,-60.38,308.82,32,0,1.06,BR,1596920956
133,Buchanan,5.88,-10.05,298.15,83,75,4.71,LR,1596920956
134,Taltal,-25.4,-70.48,288.82,65,22,1.1,CL,1596920956
135,Itarema,-2.92,-39.92,299.15,70,11,7.36,BR,1596920956
136,Yulara,-25.24,130.99,276.15,60,0,3.1,AU,1596920956
137,Butaritari,3.07,172.79,301.65,79,39,8.18,KI,1596920956
138,Khovd,48.01,91.64,287.63,57,34,0.27,MN,1596920956
139,Atherton,53.52,-2.49,291.48,70,48,3.58,GB,1596920956
140,Rupert,42.62,-113.68,301.15,18,1,3.6,US,1596920956
141,Oistins,13.07,-59.53,298.15,94,75,4.6,BB,1596920834
142,Isiro,2.77,27.62,293.73,96,99,0.31,CD,1596920956
143,Atuona,-9.8,-139.03,299.29,76,8,10.28,PF,1596920957
144,Kailua,21.4,-157.74,301.15,83,90,6.2,US,1596920875
145,El Higo,21.77,-98.47,305.52,53,100,3.22,MX,1596920957
146,Cícero Dantas,-10.6,-38.38,292.39,91,31,3.64,BR,1596920957
147,Hervey Bay,-25.3,152.85,285.93,77,0,1.79,AU,1596920957
148,Malinovoye Ozero,51.68,79.78,292.0,66,0,2.83,RU,1596920957
149,Torbay,47.67,-52.73,297.59,73,75,5.1,CA,1596920957
150,Soria,41.67,-2.67,295.93,54,61,0.45,ES,1596920958
151,Kungurtug,50.6,97.52,279.44,86,52,0.22,RU,1596920958
152,Kristinestad,62.27,21.38,292.38,74,47,5.99,FI,1596920958
153,Aden,12.78,45.04,304.04,70,100,8.46,YE,1596920864
154,Celestún,20.87,-90.4,304.75,58,80,9.22,MX,1596920958
155,Portland,45.52,-122.68,298.15,46,75,4.1,US,1596920673
156,Klaksvík,62.23,-6.59,284.15,87,10,3.6,FO,1596920958
157,Leningradskiy,69.38,178.42,281.76,70,0,4.18,RU,1596920958
158,Tasiilaq,65.61,-37.64,280.15,87,40,3.6,GL,1596920958
159,Shahreza,32.03,51.88,292.46,35,0,2.2,IR,1596920958
160,Luanda,-8.84,13.23,295.15,83,75,3.6,AO,1596920587
161,Gamba,-2.65,10.0,295.93,79,78,3.63,GA,1596920959
162,Kununurra,-15.77,128.73,285.15,38,18,1.5,AU,1596920959
163,Robe,-37.18,139.75,283.9,82,73,7.84,AU,1596920959
164,Mehamn,71.04,27.85,284.38,88,9,4.54,NO,1596920959
165,Vallenar,-28.57,-70.76,296.87,38,0,2.31,CL,1596920959
166,Teluknaga,-6.1,106.64,298.71,94,40,1.0,ID,1596920959
167,Goderich,43.75,-81.72,300.37,59,0,0.45,CA,1596920901
168,Akdepe,42.06,59.38,300.15,50,10,3.1,TM,1596920959
169,Egvekinot,66.32,-179.17,281.9,63,77,1.96,RU,1596920959
170,Kadhan,24.48,68.99,302.41,78,28,6.23,PK,1596920959
171,Eureka,40.8,-124.16,296.48,72,1,4.1,US,1596920959
172,Upernavik,72.79,-56.15,278.98,71,91,3.06,GL,1596920959
173,Sisimiut,66.94,-53.67,278.09,73,100,2.34,GL,1596920960
174,Kiunga,-6.12,141.29,296.04,98,99,0.44,PG,1596920960
175,Ahipara,-35.17,173.17,286.0,79,56,3.97,NZ,1596920960
176,Bethel,41.37,-73.41,300.37,61,75,4.6,US,1596920960
177,Kruisfontein,-34.0,24.73,284.58,53,7,1.06,ZA,1596920960
178,Ile-Ife,7.47,4.57,293.28,95,4,1.25,NG,1596920960
179,Narsaq,60.92,-46.05,287.15,62,75,4.6,GL,1596920960
180,Norman Wells,65.28,-126.83,288.15,87,75,4.1,CA,1596920832
181,Carutapera,-1.2,-46.02,299.68,76,0,3.38,BR,1596920960
182,Port Lincoln,-34.73,135.87,284.53,83,35,5.91,AU,1596920960
183,Balkhash,46.84,74.98,297.8,39,80,3.96,KZ,1596920960
184,Marzuq,14.4,46.47,299.55,45,100,2.9,YE,1596920960
185,Erenhot,43.65,111.98,294.91,39,0,5.0,CN,1596920960
186,Faya,18.39,42.45,292.15,88,67,2.6,SA,1596920961
187,Vilyuysk,63.76,121.62,287.51,73,0,0.52,RU,1596920961
188,Bathsheba,13.22,-59.52,298.15,94,75,4.6,BB,1596920961
189,Codrington,-38.27,141.97,283.04,82,6,6.26,AU,1596920961
190,Uşak Province,38.5,29.42,292.24,69,0,1.22,TR,1596920961
191,Antofagasta,-23.65,-70.4,289.15,72,40,6.7,CL,1596920883
192,Yelizovo,53.19,158.38,284.15,100,75,3.0,RU,1596920961
193,Grindavik,63.84,-22.43,283.15,93,90,6.2,IS,1596920961
194,Cileunyi,-6.94,107.75,293.54,91,37,0.28,ID,1596920961
195,Faanui,-16.48,-151.75,299.27,78,0,8.33,PF,1596920961
196,Warmbad,-28.45,18.73,281.1,74,0,3.97,NA,1596920961
197,Turan,16.07,108.22,299.15,88,20,0.5,VN,1596920961
198,Bahir Dar,11.59,37.39,289.29,91,100,1.86,ET,1596920961
199,Touros,-5.2,-35.46,299.15,69,20,4.6,BR,1596920961
200,Tongzi,28.78,105.09,297.59,89,51,1.0,CN,1596920962
201,Isla Mujeres,21.23,-86.73,305.15,66,75,4.6,MX,1596920962
202,Mariehamn,60.1,19.93,291.15,93,10,3.1,AX,1596920701
203,Cabo San Lucas,22.89,-109.91,306.15,43,20,3.1,MX,1596920919
204,Emerald,-23.53,148.17,282.15,81,0,4.1,AU,1596920963
205,Businga,3.33,20.88,295.56,95,98,0.6,CD,1596920963
206,Tabas,33.6,56.92,308.15,19,0,4.1,IR,1596920963
207,Mayo,38.89,-76.51,302.59,69,1,2.1,US,1596920963
208,Lermontovka,47.15,134.34,288.67,92,93,1.78,RU,1596920963
209,Tecpan,14.76,-90.99,299.15,57,40,6.2,GT,1596920963
210,Najrān,17.49,44.13,302.15,42,40,4.1,SA,1596920963
211,Edson,53.58,-116.44,291.15,31,40,9.3,CA,1596920963
212,Longyearbyen,78.22,15.64,283.15,87,75,1.5,SJ,1596920963
213,Dingle,11.0,122.67,297.88,89,100,3.71,PH,1596920963
214,Verāval,20.9,70.37,301.31,80,95,8.8,IN,1596920963
215,Riachão do Dantas,-11.07,-37.73,293.56,94,76,2.59,BR,1596920963
216,Plettenberg Bay,-34.05,23.37,289.95,33,81,2.99,ZA,1596920964
217,Sungai Penuh,-2.08,101.38,290.65,93,93,0.59,ID,1596920964
218,Muyezerskiy,63.93,31.65,287.69,87,0,1.78,RU,1596920964
219,Auki,-8.77,160.7,299.86,81,97,2.47,SB,1596920964
220,Kamogawa,35.1,140.1,300.93,75,99,2.24,JP,1596920964
221,Bhachāu,23.28,70.35,301.65,78,20,6.95,IN,1596920824
222,Ippy,6.27,21.22,294.87,93,100,1.27,CF,1596920964
223,Lavrentiya,65.58,-171.0,280.55,72,13,2.63,RU,1596920964
224,Krasnogorskiy,54.6,61.23,289.47,96,77,4.16,RU,1596920964
225,Ribeira Brava,32.65,-17.07,296.15,73,40,6.2,PT,1596920964
226,Khani,41.96,42.96,296.15,94,75,1.0,GE,1596920964
227,Bogorodskoye,56.55,37.88,287.8,94,72,1.96,RU,1596920964
228,Wuxue,29.85,115.55,300.35,88,100,1.4,CN,1596920964
229,Bianzhuang,34.85,118.04,296.73,96,38,1.5,CN,1596920964
230,Iqaluit,63.75,-68.51,287.15,44,20,7.2,CA,1596920964
231,Colac,-38.33,143.58,281.48,99,49,3.58,AU,1596920965
232,Weyburn,49.67,-103.85,301.48,25,0,4.92,CA,1596920965
233,Fortuna,40.6,-124.16,296.48,72,1,4.1,US,1596920965
234,Navoiy,40.08,65.38,297.15,33,0,3.1,UZ,1596920965
235,Kaitangata,-46.28,169.85,282.59,66,96,6.26,NZ,1596920965
236,Vardø,70.37,31.11,284.22,91,0,4.75,NO,1596920965
237,Chany,55.31,76.76,290.39,88,0,2.36,RU,1596920965
238,Dhidhdhoo,6.88,73.1,300.83,77,100,5.83,MV,1596920965
239,Libertador General San Martín,-23.81,-64.79,297.59,43,0,2.9,AR,1596920965
240,Mandalgovi,45.76,106.27,286.65,64,49,4.44,MN,1596920965
241,Lebu,-37.62,-73.65,284.64,88,100,2.41,CL,1596920965
242,Merauke,-8.47,140.33,297.5,89,17,1.95,ID,1596920966
243,Ugoofaaru,5.67,73.0,301.21,79,93,5.44,MV,1596920966
244,Aykhal,66.0,111.5,288.15,77,100,2.0,RU,1596920966
245,Padang,-0.95,100.35,298.63,73,100,1.88,ID,1596920966
246,Vila Velha,-20.33,-40.29,297.15,69,0,3.1,BR,1596920966
247,Puerto Palomas,31.77,-107.62,309.15,18,1,1.07,MX,1596920966
248,Thinadhoo,0.53,72.93,301.29,80,90,4.03,MV,1596920966
249,Warrington,53.39,-2.58,292.15,72,57,3.79,GB,1596920966
250,Hauterive,46.09,3.45,299.15,47,0,2.6,FR,1596920967
251,Tual,-5.67,132.75,298.94,85,34,6.32,ID,1596920967
252,Chui,-33.7,-53.46,287.97,87,40,3.07,UY,1596920967
253,Hamilton,39.18,-84.53,304.26,45,1,2.36,US,1596920967
254,San Cristobal,7.77,-72.22,305.15,43,40,10.3,VE,1596920933
255,Manyana,-23.4,21.72,287.3,41,0,5.08,BW,1596920968
256,Villamartín,36.86,-5.64,301.15,54,0,4.1,ES,1596920968
257,Mainit,9.54,125.52,297.92,86,100,2.85,PH,1596920968
258,Torbat-e Jām,35.24,60.62,294.47,36,0,5.25,IR,1596920968
259,Haines Junction,60.75,-137.51,289.66,44,65,3.98,CA,1596920968
260,Chara,56.91,118.26,285.88,77,88,2.62,RU,1596920968
261,Tuatapere,-46.13,167.68,282.59,86,100,7.15,NZ,1596920968
262,San Jose,37.34,-121.89,305.93,37,1,3.1,US,1596920686
263,Nizhniy Kuranakh,58.84,125.49,286.62,85,68,1.39,RU,1596920968
264,Paamiut,61.99,-49.67,279.07,83,67,2.12,GL,1596920968
265,North Las Vegas,36.2,-115.12,310.93,7,1,4.6,US,1596920908
266,Sonāmukhi,23.3,87.42,301.38,85,91,2.62,IN,1596920968
267,Rundu,-17.93,19.77,288.82,33,0,1.51,NA,1596920968
268,Mahibadhoo,3.78,72.97,301.3,80,100,6.04,MV,1596920968
269,Lompoc,34.64,-120.46,294.82,60,11,6.7,US,1596920969
270,Coquimbo,-29.95,-71.34,286.15,82,75,3.1,CL,1596920969
271,Atar,20.52,-13.05,313.22,17,29,4.13,MR,1596920969
272,Iquique,-20.22,-70.14,290.15,67,11,7.7,CL,1596920969
273,Kumul,42.8,93.45,301.02,18,0,3.8,CN,1596920969
274,Milyutinskaya,48.63,41.67,293.52,56,0,5.56,RU,1596920969
275,Baruun-Urt,46.68,113.28,285.84,84,19,0.78,MN,1596920969
276,Gmina Końskie,51.19,20.41,294.82,100,1,1.37,PL,1596920969
277,Leshukonskoye,64.9,45.76,281.18,95,67,2.49,RU,1596920969
278,Asău,46.43,26.4,295.93,68,61,3.6,RO,1596920969
279,San Blas,21.52,-105.27,304.15,52,40,5.01,MX,1596920969
280,Acajutla,13.59,-89.83,305.15,55,40,2.5,SV,1596920782
281,Kem',64.96,34.58,285.8,78,97,2.79,RU,1596920969
282,Orsha,54.52,30.41,289.63,88,0,1.64,BY,1596920969
283,San-Pédro,4.75,-6.64,296.78,81,15,3.31,CI,1596920969
284,Port Elizabeth,-33.92,25.57,289.24,57,0,1.58,ZA,1596920949
285,Saldanha,-33.01,17.94,286.15,93,93,8.7,ZA,1596920970
286,Tiznit Province,29.58,-9.5,297.47,60,0,0.35,MA,1596920970
287,Lincoln,40.8,-96.67,304.26,62,90,6.2,US,1596920676
288,Mankato,44.16,-94.0,299.82,100,90,4.1,US,1596920704
289,Sibolga,1.74,98.78,297.87,78,77,1.56,ID,1596920970
290,Esperance,-33.87,121.9,280.15,93,100,6.2,AU,1596920970
291,Capinópolis,-18.68,-49.57,297.45,34,9,2.02,BR,1596920970
292,Rutland,43.62,-73.02,301.15,51,20,2.6,US,1596920970
293,Olafsvik,64.89,-23.71,283.56,89,100,5.39,IS,1596920970
294,Deputatsky,69.3,139.9,279.83,98,100,1.7,RU,1596920970
295,Agua Verde,22.9,-106.05,305.15,66,40,4.1,MX,1596920970
296,Pangnirtung,66.15,-65.71,282.82,53,64,1.87,CA,1596920970
297,Ventspils,57.39,21.56,291.15,88,0,2.03,LV,1596920970
298,Pevek,69.7,170.31,279.35,82,100,6.59,RU,1596920970
299,Alofi,-19.06,-169.92,297.15,64,21,1.5,NU,1596920970
300,Lewisville,33.05,-96.99,310.93,34,20,6.2,US,1596920940
301,Lüderitz,-26.65,15.16,284.15,76,0,1.0,NA,1596920972
302,Great Yarmouth,52.61,1.73,292.04,99,100,1.79,GB,1596920972
303,Saint George,37.1,-113.58,310.93,6,1,2.6,US,1596920967
304,Batemans Bay,-35.72,150.18,285.93,100,100,2.24,AU,1596920972
305,Port Hardy,50.7,-127.42,291.15,72,40,4.1,CA,1596920972
306,Kudahuvadhoo,2.67,72.89,301.25,80,94,4.13,MV,1596920972
307,Lábrea,-7.26,-64.8,309.63,25,0,1.24,BR,1596920972
308,Øksfjord,70.24,22.35,293.15,64,80,4.1,NO,1596920972
309,Sompeta,18.93,84.6,302.1,77,100,1.44,IN,1596920972
310,Linjiang,41.81,126.91,290.98,88,12,1.34,CN,1596920972
311,Richards Bay,-28.78,32.04,292.83,56,0,8.48,ZA,1596920972
312,Kankan,10.39,-9.31,295.73,95,63,1.92,GN,1596920972
313,Aklavik,68.22,-135.01,288.15,77,75,5.7,CA,1596920972
314,Pisco,-13.7,-76.22,292.15,72,8,4.6,PE,1596920972
315,Sorong,-0.88,131.25,298.27,85,100,2.4,ID,1596920973
316,Marapanim,-0.72,-47.7,299.84,82,21,2.69,BR,1596920973
317,Grand Gaube,-20.01,57.66,292.04,80,18,0.45,MU,1596920973
318,Imbituba,-28.24,-48.67,294.15,73,0,3.1,BR,1596920973
319,Camacha,33.08,-16.33,295.15,88,75,3.6,PT,1596920973
320,Skibbereen,51.55,-9.27,287.15,82,20,2.1,IE,1596920973
321,Broken Hill,-31.95,141.43,281.15,93,90,2.6,AU,1596920973
322,Kamina,-8.74,24.99,292.7,38,46,2.24,CD,1596920973
323,Ostrovnoy,68.05,39.51,283.96,91,90,2.0,RU,1596920973
324,Biltine,14.53,20.92,297.27,87,100,2.55,TD,1596920973
325,Nara,34.69,135.8,300.93,88,40,2.1,JP,1596920973
326,Yarmouth,41.71,-70.23,298.15,85,0,3.89,US,1596920973
327,Lodja,-3.48,23.43,297.89,61,20,0.76,CD,1596920973
328,Opuwo,-18.06,13.84,286.68,52,0,2.73,NA,1596920974
329,Santa Isabel Rio Negro,-0.41,-65.02,305.08,55,62,0.77,BR,1596920974
330,Sittwe,20.15,92.9,300.36,87,100,6.23,MM,1596920974
331,Uruçuí,-7.23,-44.56,302.85,30,0,2.57,BR,1596920974
332,Tongliao,43.61,122.27,293.97,90,39,4.25,CN,1596920974
333,Xining,36.62,101.77,285.95,60,0,1.48,CN,1596920974
334,Kajaani,64.23,27.73,292.15,88,86,4.1,FI,1596920974
335,Sarkand,45.41,79.92,292.27,31,26,1.2,KZ,1596920974
336,Quelimane,-17.88,36.89,289.62,81,1,2.04,MZ,1596920974
337,Sokolo,14.73,-6.12,300.11,73,73,2.59,ML,1596920974
338,Mandan,46.83,-100.89,304.15,37,1,2.1,US,1596920974
339,Hasaki,35.73,140.83,297.04,100,75,2.1,JP,1596920974
340,Souillac,-20.52,57.52,293.15,94,75,6.2,MU,1596920974
341,Korla,41.76,86.15,301.48,57,0,1.34,CN,1596920974
342,Mount Isa,-20.73,139.5,282.15,61,0,1.5,AU,1596920974
343,Province of Vibo Valentia,38.7,16.13,294.15,94,3,1.5,IT,1596920974
344,Tiarei,-17.53,-149.33,301.15,65,20,9.8,PF,1596920974
345,Borogontsy,62.67,131.17,288.15,58,0,0.74,RU,1596920975
346,Myaundzha,63.05,147.19,287.9,58,84,1.61,RU,1596920975
347,Cayenne,4.93,-52.33,299.15,83,24,1.5,GF,1596920975
348,Northam,51.03,-4.22,290.37,90,0,0.89,GB,1596920975
349,Tilichiki,60.47,166.1,286.44,56,0,1.12,RU,1596920975
350,Morgan City,29.7,-91.21,304.15,79,1,3.1,US,1596920976
351,Hammerfest,70.66,23.68,291.15,63,92,6.2,NO,1596920802
352,Bitung,1.45,125.18,298.15,83,20,2.6,ID,1596920976
353,Shingū,33.73,135.98,297.57,90,38,2.21,JP,1596920976
354,Yerbogachën,61.28,108.01,286.89,64,0,1.25,RU,1596920976
355,Pervomayskoye,43.92,46.71,298.28,35,1,2.33,RU,1596920976
356,Atasū,48.68,71.64,296.34,40,100,4.45,KZ,1596920976
357,Am Timan,11.03,20.28,296.33,93,98,2.91,TD,1596920976
358,Qorveh,35.17,47.8,287.8,56,0,2.64,IR,1596920976
359,Lernakert,40.56,43.94,291.15,52,0,3.6,AM,1596920976
360,Waipawa,-41.41,175.52,283.15,76,8,5.1,NZ,1596920976
361,Campbell River,50.02,-125.24,293.15,42,75,6.2,CA,1596920977
362,Carácuaro,19.01,-101.13,303.72,60,97,1.8,MX,1596920977
363,Beatrice,40.27,-96.75,305.15,62,1,3.6,US,1596920977
364,Sulangan,11.14,123.72,302.32,73,100,6.94,PH,1596920977
365,Alta Floresta,-9.88,-56.09,306.57,20,1,1.84,BR,1596920977
366,Casablanca,33.59,-7.62,296.15,88,40,2.1,MA,1596920494
367,The Pas,53.83,-101.25,293.15,68,90,8.51,CA,1596920977
368,Shestakovo,56.49,103.96,288.76,69,50,1.96,RU,1596920977
369,Miraflores,19.22,-98.81,296.15,40,90,2.1,MX,1596920977
370,Svarstad,59.4,9.97,290.37,1,0,1.0,NO,1596920977
371,Bac Lieu,9.29,105.72,298.94,89,100,1.9,VN,1596920838
372,Wagga Wagga,-35.12,147.37,281.15,100,90,3.6,AU,1596920874
373,Biak,-0.91,122.88,297.73,82,78,1.4,ID,1596920977
374,Ekibastuz,51.67,75.37,295.49,49,95,3.89,KZ,1596920977
375,Mercedes,-34.65,-59.43,290.37,98,99,0.89,AR,1596920977
376,Izumi,34.48,135.43,301.48,83,60,5.7,JP,1596920977
377,Flagstaff,35.2,-111.65,303.71,17,40,7.7,US,1596920903
378,São Filipe,14.9,-24.5,299.52,71,70,4.28,CV,1596920977
379,Dmitriyevskoye,45.81,41.9,297.2,45,13,5.06,RU,1596920977
380,Hofn,64.25,-15.21,284.35,81,99,7.23,IS,1596920978
381,Orikum,40.33,19.47,298.18,63,71,2.14,AL,1596920978
382,Lokoja,7.8,6.74,296.49,82,0,1.45,NG,1596920978
383,Tarakan,3.3,117.63,299.01,85,100,4.48,ID,1596920978
384,Karpathos,35.51,27.21,298.15,83,0,8.2,GR,1596920978
385,Nānākuli,21.39,-158.15,302.15,66,75,4.6,US,1596920978
386,Jining,35.41,116.58,295.97,96,22,0.85,CN,1596920938
387,Vanimo,-2.67,141.3,298.49,85,100,4.02,PG,1596920978
388,Okmulgee,35.62,-95.96,308.71,64,0,1.79,US,1596920978
389,Manokwari,-0.87,134.08,298.92,80,100,2.81,ID,1596920978
390,Chudovo,59.12,31.68,289.58,94,0,1.83,RU,1596920978
391,Srinagar,34.08,74.82,294.54,80,72,0.46,IN,1596920795
392,Valleyview,55.07,-117.29,288.96,53,34,8.78,CA,1596920978
393,Praia,14.92,-23.51,299.15,74,20,7.2,CV,1596920978
394,Taoudenni,22.68,-3.98,314.96,10,0,7.59,ML,1596920978
395,Pontianak,-0.03,109.33,297.5,94,99,0.99,ID,1596920978
396,Glencoe,-28.18,30.15,284.08,44,0,3.35,ZA,1596920978
397,Naryan-Mar,67.67,53.09,281.68,92,100,1.14,RU,1596920978
398,Pastavy,55.12,26.83,290.14,88,0,1.62,BY,1596920978
399,Parksville,49.32,-124.32,294.26,51,71,2.68,CA,1596920858
400,Rocha,-34.48,-54.33,289.86,92,99,2.85,UY,1596920980
401,Port Keats,-14.25,129.55,291.57,33,52,4.67,AU,1596920980
402,Kabanjahe,3.1,98.49,299.15,100,40,1.0,ID,1596920980
403,Sola,-13.88,167.55,298.1,85,19,7.81,VU,1596920980
404,Cockburn Town,21.46,-71.14,303.15,70,40,5.1,TC,1596920980
405,Tobermory,45.25,-81.67,294.82,77,4,1.79,CA,1596920980
406,Amahai,-3.33,128.92,298.15,97,54,0.78,ID,1596920980
407,Wamba,8.93,8.6,295.17,88,61,1.4,NG,1596920980
408,Bereda,43.27,-7.54,292.04,98,40,3.13,ES,1596920980
409,Gien,47.69,2.63,299.82,42,0,0.5,FR,1596920980
410,Leh,34.17,77.58,291.05,42,23,1.12,IN,1596920980
411,Abhā,18.22,42.51,292.15,88,85,2.6,SA,1596920980
412,Bay City,43.59,-83.89,300.93,39,40,5.7,US,1596920980
413,Oddur,4.12,43.89,295.14,60,60,8.13,SO,1596920980
414,Maniitsoq,65.42,-52.9,279.93,77,81,1.2,GL,1596920980
415,Larsnes,62.2,5.58,285.37,84,1,2.24,NO,1596920980
416,Antsohihy,-14.88,47.99,292.1,75,3,1.74,MG,1596920980
417,Constitución,-35.33,-72.42,287.26,71,62,6.0,CL,1596920980
418,Kalcheva,45.74,28.81,298.06,51,1,6.44,UA,1596920981
419,Fairbanks,64.84,-147.72,291.48,67,90,2.6,US,1596920882
420,Quatre Cocos,-20.21,57.76,293.15,94,75,6.2,MU,1596920981
421,Varhaug,58.61,5.65,285.93,99,9,1.34,NO,1596920981
422,Virginia Beach,36.85,-75.98,299.82,78,75,2.1,US,1596920706
423,Abéché,13.83,20.83,298.0,81,100,3.06,TD,1596920981
424,Mizdah,31.45,12.98,295.63,62,0,3.3,LY,1596920981
425,Cavalcante,-13.8,-47.46,295.56,39,31,2.2,BR,1596920981
426,Olenegorsk,68.15,33.3,283.07,89,9,1.6,RU,1596920981
427,Hay River,60.82,-115.8,294.15,52,75,3.6,CA,1596920981
428,Bilibino,68.05,166.44,282.11,85,100,3.2,RU,1596920981
429,East London,-33.02,27.91,293.92,33,0,3.59,ZA,1596920981
430,Sobolevo,54.43,31.9,289.42,90,0,2.0,RU,1596920981
431,Kirksville,40.19,-92.58,302.04,74,1,5.1,US,1596920981
432,Kirensk,57.79,108.11,286.58,64,16,2.64,RU,1596920981
433,Maridi,4.92,29.47,293.46,95,87,1.6,SS,1596920981
434,Fort Nelson,58.81,-122.7,292.15,42,75,6.7,CA,1596920981
435,Malatya Province,38.5,38.0,292.15,39,0,2.1,TR,1596920853
436,Ampanihy,-24.7,44.75,286.83,75,0,3.93,MG,1596920982
437,Jumla,29.27,82.18,291.68,73,100,0.42,NP,1596920982
438,Longonjo,-12.91,15.25,286.71,62,0,0.64,AO,1596920982
439,Yamada,39.47,141.95,293.68,93,100,3.5,JP,1596920982
440,Tiksi,71.69,128.87,277.17,95,100,5.96,RU,1596920982
441,Poum,-20.23,164.02,294.61,75,60,4.68,NC,1596920982
442,Broome,42.25,-75.83,301.48,51,1,2.6,US,1596920982
443,Mahajanga,-15.72,46.32,297.04,71,92,3.71,MG,1596920982
444,Praia,14.92,-23.51,299.15,74,20,7.2,CV,1596920762
445,Forssa,60.81,23.62,288.15,83,0,0.45,FI,1596920982
446,Bertem,50.85,4.62,301.15,44,53,1.5,BE,1596920982
447,Kashgar,39.45,75.98,298.71,87,4,1.78,CN,1596920982
448,Pāsighāt,28.07,95.33,299.08,86,100,0.98,IN,1596920982
449,Marystown,47.17,-55.15,292.99,77,100,4.95,CA,1596920982
450,Seydi,39.48,62.91,298.65,35,0,0.76,TM,1596920945
451,Limulunga,-15.1,23.14,290.82,40,2,2.71,ZM,1596920983
452,Victor Harbor,-35.57,138.62,279.82,100,56,0.45,AU,1596920983
453,Liuli,-11.08,34.63,294.37,62,0,2.76,TZ,1596920984
454,Birjand,32.87,59.22,298.15,25,52,7.2,IR,1596920984
455,Altea,38.6,-0.05,300.37,54,25,1.77,ES,1596920984
456,Henties Bay,-22.12,14.28,285.93,80,0,1.75,NA,1596920984
457,Port Moresby,-9.44,147.18,297.15,100,40,1.5,PG,1596920984
458,Batagay,67.63,134.63,287.74,54,41,1.8,RU,1596920984
459,Horsham,51.06,-0.33,298.15,47,99,3.6,GB,1596920984
460,Koryazhma,61.31,47.17,284.58,96,10,2.15,RU,1596920984
461,Farmington,36.73,-108.22,306.15,11,1,7.7,US,1596920931
462,Kieta,-6.22,155.63,299.92,77,87,2.39,PG,1596920984
463,Gondanglegi,-7.75,112.01,295.25,87,35,2.28,ID,1596920984
464,Chongwe,-15.33,28.68,286.15,76,0,2.6,ZM,1596920984
465,Aquiraz,-3.9,-38.39,301.15,65,0,6.2,BR,1596920984
466,Naze,28.37,129.48,299.15,94,75,4.6,JP,1596920984
467,Bowling Green,36.99,-86.44,305.15,43,1,0.92,US,1596920984
468,Indiaroba,-11.52,-37.51,294.86,92,97,3.28,BR,1596920984
469,Panzhihua,26.59,101.71,296.26,81,100,0.98,CN,1596920984
470,Taloqan,36.74,69.53,294.87,36,0,0.73,AF,1596920984
471,Nakasongola,1.31,32.46,292.72,87,90,0.58,UG,1596920985
472,Salalah,17.02,54.09,299.15,88,75,1.5,OM,1596920985
473,Chengde,40.97,117.94,291.64,89,36,0.33,CN,1596920985
474,Ruteng,-8.61,120.47,288.25,87,65,0.76,ID,1596920985
475,Oriximiná,-1.77,-55.87,306.41,39,0,2.3,BR,1596920985
476,São Gabriel da Cachoeira,-0.13,-67.09,302.15,74,40,1.5,BR,1596920985
477,Soto la Marina,23.77,-98.22,306.48,54,11,4.92,MX,1596920985
478,Lisala,2.15,21.52,294.93,95,70,0.67,CD,1596920985
479,Chernyshevskiy,63.01,112.47,288.62,63,65,0.67,RU,1596920985
480,Ouango,4.31,22.56,295.15,94,100,1.07,CF,1596920985
481,Luangwa,-15.62,30.42,290.53,63,0,2.14,ZM,1596920986
482,Imeni Poliny Osipenko,52.42,136.49,285.13,90,23,2.55,RU,1596920986
483,Tautira,-17.73,-149.15,301.15,65,20,9.8,PF,1596920986
484,Morro Bay,35.37,-120.85,300.37,50,1,4.1,US,1596920791
485,Te Anau,-45.42,167.72,279.22,85,99,2.45,NZ,1596920986
486,Caravelas,-17.71,-39.25,293.98,89,100,2.93,BR,1596920986
487,College,64.86,-147.8,291.48,59,75,3.1,US,1596920986
488,Kasongo,-4.45,26.67,297.51,54,31,0.98,CD,1596920986
489,Karratha,-20.74,116.85,292.39,68,0,4.01,AU,1596920986
490,Puro,12.48,123.38,300.04,81,93,6.13,PH,1596920986
491,Sakaiminato,35.55,133.23,299.15,83,75,3.6,JP,1596920986
492,Gelemso,8.82,40.52,287.28,96,39,2.45,ET,1596920986
493,Voh,-20.97,164.7,293.85,71,29,1.14,NC,1596920986
494,Katangli,51.71,143.23,285.82,78,0,7.37,RU,1596920986
495,Vanavara,60.34,102.28,286.49,68,0,1.6,RU,1596920986
496,Tabou,4.42,-7.35,297.4,78,79,3.88,CI,1596920986
497,Gamboma,-1.88,15.86,300.12,50,45,1.41,CG,1596920987
498,Gizo Government Station,-8.1,156.84,301.15,73,100,3.09,SB,1596920987
499,Nhulunbuy,-12.23,136.77,296.15,73,98,2.6,AU,1596920987
500,Soyo,-6.13,12.37,295.73,85,16,4.59,AO,1596920988
501,Ossora,59.24,163.07,288.3,65,100,2.44,RU,1596920988
502,Hibbing,47.43,-92.94,301.15,74,1,2.1,US,1596920831
503,Omsk,55.0,73.4,294.15,56,0,3.0,RU,1596920853
504,Pacific Grove,36.62,-121.92,298.15,53,1,3.1,US,1596920988
505,Nur-Sultan,51.18,71.45,297.15,44,75,10.0,KZ,1596920699
506,Marawi,8.0,124.29,296.48,92,92,3.13,PH,1596920988
507,Kita,13.03,-9.49,296.3,96,100,0.87,ML,1596920989
508,Yendi,9.44,-0.01,296.65,83,58,2.45,GH,1596920989
509,Suntar,62.14,117.63,287.56,79,39,1.67,RU,1596920989
510,Yangambi,0.81,24.43,295.61,92,100,0.75,CD,1596920989
511,San Lorenzo,-25.33,-57.53,305.15,24,0,3.6,PY,1596920989
512,Lagoa,39.05,-27.98,293.93,62,36,1.4,PT,1596920989
513,Shahrud,36.42,54.98,291.95,49,0,3.68,IR,1596920989
514,Sukumo,32.93,132.73,298.63,93,79,1.56,JP,1596920989
515,Alice Springs,-23.7,133.88,277.15,80,0,2.6,AU,1596920755
516,Guerrero Negro,27.98,-114.06,301.33,41,0,7.29,MX,1596920989
517,Port Blair,11.67,92.75,300.66,82,100,7.42,IN,1596920989
518,Saint-Paul,-21.01,55.27,293.15,68,10,2.6,RE,1596920989
519,Bandarbeyla,9.49,50.81,299.63,61,7,10.97,SO,1596920990
520,Alexandria,31.22,29.96,300.15,74,40,4.1,EG,1596920566
521,Verkhnevilyuysk,63.45,120.32,287.36,79,0,0.68,RU,1596920990
522,Tigil',57.8,158.67,289.44,57,100,3.96,RU,1596920990
523,Anito,12.45,125.29,298.08,90,100,5.04,PH,1596920990
524,Petropavlovsk-Kamchatskiy,53.05,158.65,284.15,100,75,3.0,RU,1596920990
525,Wencheng,33.06,113.8,296.37,92,0,1.0,CN,1596920990
526,Dongsheng,39.82,109.98,294.1,34,0,4.31,CN,1596920990
527,Medininagar,24.03,84.07,299.13,89,99,1.73,IN,1596920990
528,Mayaky,47.44,29.56,293.65,61,0,4.86,UA,1596920701
529,Kidal,18.44,1.41,305.16,46,8,6.5,ML,1596920990
530,Vila Franca do Campo,37.72,-25.43,295.15,88,40,2.6,PT,1596920990
531,Yinchuan,38.47,106.27,298.54,31,0,2.32,CN,1596920990
532,Manatí,18.43,-66.49,304.15,70,20,6.2,PR,1596920990
533,Amapá,1.0,-52.0,298.45,87,82,0.19,BR,1596920991
534,Yuzhno-Kurilsk,44.03,145.86,287.82,85,4,3.9,RU,1596920991
535,Orán,-23.13,-64.33,297.59,43,0,2.84,AR,1596920991
536,Maxixe,-23.86,35.35,289.37,69,0,3.12,MZ,1596920991
537,Tumaco,1.8,-78.82,300.19,76,33,5.22,CO,1596920991
538,Santa Cruz,30.42,-9.6,296.15,78,3,2.1,MA,1596920991
539,Bilma,18.69,12.92,307.2,34,99,4.5,NE,1596920991
540,Oltu,40.55,42.0,291.59,42,0,1.61,TR,1596920991
541,Ayan,56.45,138.17,290.43,62,0,1.32,RU,1596920991
542,Port-Gentil,-0.72,8.78,298.15,78,40,4.25,GA,1596920991
543,Lata,40.16,-8.33,294.26,69,0,2.24,PT,1596920992
544,Carahue,-38.7,-73.17,286.15,71,90,1.0,CL,1596920992
545,Wuzhou,23.48,111.32,299.33,88,100,0.38,CN,1596920992
546,Moindou,-21.69,165.68,293.15,77,39,1.0,NC,1596920992
547,Don Luan,11.53,106.92,295.78,96,97,0.2,VN,1596920992
548,Juradó,7.11,-77.76,301.71,77,29,3.44,CO,1596920992
549,Natal,-5.79,-35.21,299.15,74,20,7.7,BR,1596920992
550,Akom,2.67,12.71,292.65,92,98,1.19,CM,1596920993
551,Sept-Îles,50.2,-66.38,297.15,60,40,3.6,CA,1596920993
552,City of San Pedro,14.35,121.02,299.26,94,100,1.5,PH,1596920993
553,Laguna,38.42,-121.42,307.59,33,1,2.6,US,1596920994
554,Lorengau,-2.02,147.27,299.68,79,100,2.7,PG,1596920994
555,Ituango,7.17,-75.76,295.88,83,34,1.45,CO,1596920994
556,Srednekolymsk,67.45,153.68,284.03,74,72,3.94,RU,1596920994
